,City,Cloudiness,Country,Date,Humidity,Lat,Lng,Max Temp,Wind Speed
0,Bethel,90,US,1549258500,100,60.79,-161.76,28.04,9.17
2,Labuhan,80,ID,1549260373,84,-2.54,115.51,81.31,3.04
3,Ponta do Sol,36,BR,1549260373,85,-20.63,-46,68.48,3.04
4,Mataura,88,NZ,1549260373,53,-46.19,168.86,71.18,21.83
5,Bluff,92,AU,1549260374,51,-23.58,149.07,85.27,15.01
6,Mar del Plata,0,AR,1549260374,94,-46.43,-67.52,54.08,2.15
7,Bubaque,0,GW,1549260374,100,11.28,-15.83,75.28,11.43
8,Iwanai,44,JP,1549260375,100,42.97,140.51,25.37,30.67
9,Ushuaia,0,AR,1549256400,55,-54.81,-68.31,60.8,13.87
10,Beringovskiy,64,RU,1549260375,86,63.05,179.32,29.11,17.69
11,Yellowknife,40,CA,1549256400,65,62.45,-114.38,-36.41,5.82
12,Richards Bay,88,ZA,1549260376,100,-28.77,32.06,70.69,8.08
13,Yumen,0,CN,1549260376,77,40.29,97.04,24.07,16.69
14,Chuy,24,UY,1549260140,87,-33.69,-53.46,63.53,6.51
15,Mareeba,75,AU,1549258920,83,-16.99,145.42,78.8,17.22
16,Luderitz,0,NA,1549260377,80,-26.65,15.16,59.71,15.12
17,Bambous Virieux,40,MU,1549256400,79,-20.34,57.76,86,11.41
18,Lasa,0,CY,1549258200,57,34.92,32.53,57.2,2.24
19,Qaanaaq,0,GL,1549260378,82,77.48,-69.36,-19.23,2.59
20,Luganville,64,VU,1549260378,100,-15.51,167.18,81.31,1.36
21,Hilo,90,US,1549255980,84,19.71,-155.08,71.96,11.21
24,Rikitea,12,PF,1549260379,99,-23.12,-134.97,81.85,7.74
25,Hermanus,92,ZA,1549260379,98,-34.42,19.24,63.31,3.49
26,Dingle,0,PH,1549260379,53,11,122.67,86.98,16.69
27,Arlit,0,NE,1549260380,57,18.74,7.39,51.79,4.38
28,Upernavik,12,GL,1549260380,100,72.79,-56.15,1.12,1.36
29,Pierre,90,US,1549255980,71,44.37,-100.35,1.94,19.46
30,Martapura,40,ID,1549256400,74,-3.41,114.85,84.2,5.82
31,Busselton,0,AU,1549260381,76,-33.64,115.35,76.85,8.63
32,Albany,90,US,1549259640,67,42.65,-73.75,42.08,8.05
33,Vostok,32,RU,1549260381,47,46.45,135.83,-3.25,9.53
34,Cherskiy,0,RU,1549260382,56,68.75,161.3,-19.41,6.06
35,Nanortalik,0,GL,1549260382,100,60.14,-45.24,20.02,6.51
37,Cape Town,20,ZA,1549256400,88,-33.93,18.42,64.4,10.29
38,Kapaa,75,US,1549256160,71,22.08,-159.32,75.02,17.22
39,Amahai,24,ID,1549260383,96,-3.31,129,86.35,6.62
40,Mahebourg,40,MU,1549256400,79,-20.41,57.7,86,11.41
41,Pochutla,0,MX,1549260383,100,15.74,-96.47,78.38,6.4
42,Lebu,0,ET,1549256400,33,8.96,38.73,62.6,8.05
43,Punta Arenas,0,CL,1549256400,67,-53.16,-70.91,57.2,12.75
44,Kandrian,68,PG,1549260384,74,-6.21,149.55,85.45,8.63
45,Parnamirim,40,BR,1549256400,88,-5.92,-35.27,77,5.82
46,Sept-Iles,90,CA,1549256400,65,50.2,-66.38,6.8,8.05
47,Changde,56,CN,1549260385,100,29.04,111.68,45.13,4.5
48,Saint-Philippe,90,CA,1549258500,92,45.36,-73.48,24.08,6.93
49,Kodiak,90,US,1549258500,82,39.95,-94.76,55.4,9.17
50,Kavieng,88,PG,1549260386,100,-2.57,150.8,80.63,7.52
51,Khatanga,64,RU,1549260386,74,71.98,102.47,-10.59,8.08
52,Det Udom,0,TH,1549256400,44,14.9,105.08,93.2,5.82
53,Butaritari,56,KI,1549260387,100,3.07,172.79,84.05,19.26
54,Longyearbyen,75,NO,1549255800,68,78.22,15.63,26.6,8.05
55,Pangnirtung,0,CA,1549260387,42,66.15,-65.72,-6,5.5
57,Souillac,0,FR,1549258200,92,45.6,-0.6,30.2,3.36
59,Mayor Pablo Lagerenza,32,PY,1549260388,79,-19.93,-60.77,73.88,13.44
60,Adrar,0,DZ,1549256400,41,27.87,-0.29,39.2,6.93
61,Tibagi,36,BR,1549260389,88,-24.52,-50.41,65.65,10.42
62,Andrews,1,US,1549259580,45,32.32,-102.55,64.4,10.29
63,Jamestown,20,AU,1549260273,32,-33.21,138.6,85.67,13
64,Lannion,92,FR,1549258200,87,48.73,-3.46,44.6,18.34
65,Pangani,90,KE,1549256160,84,-2.37,40.57,78.8,11.99
66,Soyo,75,AO,1549256400,100,-6.13,12.37,77,3.71
67,Ribeira Grande,80,PT,1549260390,95,38.52,-28.7,63.13,22.28
68,Stonewall,90,CA,1549256400,70,50.13,-97.33,-5.81,24.16
69,Ilulissat,0,GL,1549255800,37,69.22,-51.1,17.6,8.05
70,Alyangula,68,AU,1549256400,63,-13.85,136.42,91.4,14.99
71,Touros,40,BR,1549256400,94,-5.2,-35.46,77,3.36
72,Kruisfontein,88,ZA,1549260392,96,-34,24.73,69.07,13.11
73,Kirakira,80,SB,1549260392,100,-10.46,161.92,82.75,14
74,Avera,1,US,1549258500,100,33.19,-82.53,51.08,3.36
75,Sur,92,OM,1549260393,100,22.57,59.53,67.81,3.04
76,Mnichovo Hradiste,75,CZ,1549259160,86,50.53,14.97,30.2,9.17
77,Jumla,0,NP,1549260393,58,29.28,82.18,37.07,0.47
78,Cayenne,20,GF,1549258200,94,4.94,-52.33,73.4,2.24
80,Thompson,5,CA,1549256400,67,55.74,-97.86,-22.01,5.82
81,Jieshi,68,CN,1549260394,85,22.82,115.83,68.89,17.02
82,Kommunar,90,RU,1549258200,86,59.62,30.39,33.8,6.71
83,Vaini,0,IN,1549256400,47,15.34,74.49,78.8,11.41
84,Lithakia,40,GR,1549259400,54,37.72,20.83,62.6,23.85
85,Victoria,75,BN,1549258200,79,5.28,115.24,86,3.36
86,Saint George,75,GR,1549255800,100,39.45,22.34,46.4,2.93
87,Tuatapere,48,NZ,1549260396,77,-46.13,167.69,64.48,20.71
88,Paamiut,0,GL,1549260397,100,61.99,-49.67,26.27,20.27
89,Shenzhen,20,CN,1549258200,69,22.54,114.05,75.2,6.93
91,Yerbogachen,8,RU,1549260397,65,61.28,108.01,-35.34,3.6
92,Pangody,44,RU,1549260398,74,65.85,74.49,-16.3,12.1
93,Usak,0,TR,1549259400,92,38.67,29.41,30.2,2.24
94,Whitehorse,90,CA,1549256400,69,60.72,-135.06,-11.21,17.22
95,Hastings,0,NZ,1549260180,85,-39.64,176.84,71.45,12.1
96,Dikson,8,RU,1549260399,73,73.51,80.55,-9.96,8.97
97,Karaton,40,ID,1549258200,74,-6.34,106.1,84.2,16.11
98,Verkhoturye,48,RU,1549260399,62,58.86,60.81,-12.97,8.52
99,Chik,0,RU,1549258200,66,54.99,82.44,-29.21,6.71
100,New Norfolk,20,AU,1549258200,53,-42.78,147.06,71.6,17.22
101,Poya,36,NC,1549260400,98,-21.35,165.16,79.6,13.78
102,Port Hardy,90,CA,1549256400,58,50.7,-127.42,24.8,14.99
103,Nouadhibou,68,MR,1549256400,82,20.93,-17.03,59,17.22
104,Yar-Sale,56,RU,1549260401,79,66.83,70.83,-17.38,13.22
106,Klaksvik,8,FO,1549259400,80,62.23,-6.59,35.6,11.41
107,Norman Wells,5,CA,1549256400,67,65.28,-126.83,-23.81,5.82
108,Mizdah,0,LY,1549260402,63,31.45,12.98,37.66,13
109,Navirai,8,BR,1549260402,90,-23.07,-54.19,74.74,7.52
110,Puerto Ayora,24,EC,1549260403,100,-0.74,-90.35,78.34,4.94
111,Kutum,0,SD,1549260403,44,14.2,24.66,61.15,9.64
112,East London,0,ZA,1549256400,83,-33.02,27.91,69.8,12.75
113,Clyde River,20,CA,1549258980,83,70.47,-68.59,-11.21,27.51
114,Dalvik,75,SE,1549257600,92,57.79,14.13,26.6,9.17
116,Saskylakh,68,RU,1549260404,72,71.97,114.09,-10.5,16.24
117,Batagay-Alyta,12,RU,1549260405,67,67.8,130.41,-37.05,2.71
118,Tura,0,IN,1549260405,56,25.52,90.21,69.88,2.71
119,Guerrero Negro,100,MX,1549260405,100,27.97,-114.04,58.09,5.17
120,Grindavik,75,IS,1549258200,92,63.84,-22.43,30.2,6.93
121,Tasiilaq,80,GL,1549255800,79,65.61,-37.64,23,29.97
122,Tuktoyaktuk,75,CA,1549256400,70,69.44,-133.03,-4.01,16.11
123,Khandbari,0,NP,1549260406,57,27.38,87.21,32.53,0.36
125,Traverse City,90,US,1549259760,100,44.76,-85.62,41.18,6.17
126,Mogadishu,20,SO,1549256400,69,2.04,45.34,77,12.75
127,Bredasdorp,92,ZA,1549256400,88,-34.53,20.04,66.2,5.82
128,Conakry,0,GN,1549256400,83,9.52,-13.7,77,6.62
129,Arbagar,0,RU,1549260408,55,51.94,116.28,-12.39,7.07
130,Castro,0,CL,1549256400,72,-42.48,-73.76,62.6,5.82
131,Chokurdakh,20,RU,1549260409,58,70.62,147.9,-32.91,10.2
132,Hervey Bay,40,AU,1549256400,48,-25.3,152.85,86,17.22
133,Lorengau,88,PG,1549260409,100,-2.02,147.27,78.88,10.42
134,Saldanha,0,PT,1549260409,79,41.42,-6.55,21.37,2.71
135,Kibi,32,GH,1549260410,95,6.17,-0.55,70.28,2.71
136,Auras,75,IN,1549258200,87,26.91,80.51,53.6,3.36
137,Singaraja,80,ID,1549260410,96,-8.11,115.08,77.71,2.04
138,Ajdabiya,0,LY,1549260411,38,30.75,20.22,52.42,11.43
139,Hami,64,CN,1549260411,92,42.84,93.51,22.67,4.16
140,Gimli,92,CA,1549260407,77,50.63,-96.99,-3.93,16.13
143,Niksar,0,TR,1549259400,78,40.59,36.95,32,2.04
144,Lakselv,0,NO,1549259400,70,70.05,24.96,1.4,35.57
145,Caboolture,40,AU,1549258200,54,-27.08,152.95,87.8,12.75
146,Kaitangata,92,NZ,1549260412,57,-46.28,169.85,72.13,16.24
147,Severo-Kurilsk,56,RU,1549260413,100,50.68,156.12,26.59,5.61
148,Namibe,8,AO,1549260413,100,-15.19,12.15,76.72,4.05
149,Port Alfred,32,ZA,1549260413,86,-33.59,26.89,70.28,14.45
150,Myaundzha,0,RU,1549260413,77,63.05,147.18,-20.13,2.48
151,Boende,64,CD,1549260414,97,-0.28,20.88,71.41,3.94
152,Rosarito,40,CO,1549256400,83,4.91,-75.23,69.8,3.36
153,Collie,0,AU,1549260414,37,-33.36,116.15,81.04,14.56
154,Constitucion,0,MX,1549260415,56,23.99,-104.67,45.98,4.38
155,Annapolis,75,US,1549259640,92,38.98,-76.49,35.96,3.36
156,Magadan,80,RU,1549260415,100,59.56,150.8,5.8,15.79
157,Mackenzie,1,CA,1549256400,48,55.34,-123.09,-7.61,13.87
158,Cabo San Lucas,40,MX,1549255200,82,22.89,-109.91,68,7.74
159,Quixere,92,BR,1549260416,100,-5.07,-37.99,72.04,6.17
160,Rodrigues Alves,90,BR,1549256400,100,-7.74,-72.65,73.4,2.24
161,Jiuquan,0,CN,1549260416,76,39.73,98.49,23.62,2.71
162,Mackay,90,CA,1549256400,68,53.65,-115.58,-18.41,4.7
163,Vila Franca do Campo,75,PT,1549258200,82,37.72,-25.43,62.6,11.41
164,Micheweni,80,TZ,1549260417,100,-4.97,39.83,81.31,9.08
165,Umm Kaddadah,0,SD,1549260417,34,13.6,26.69,62.9,3.94
166,Erlenbach,0,DE,1549259400,92,49.67,8.75,28.4,2.71
167,Pisco,90,PE,1549256400,94,-13.71,-76.2,73.4,11.41
168,Torbay,90,CA,1549256400,66,47.66,-52.73,10.4,23.04
170,Pevek,24,RU,1549260419,97,69.7,170.27,-16.71,11.1
172,Atuona,64,PF,1549260419,100,-9.8,-139.03,80.63,14.12
173,Casas Grandes,80,MX,1549260420,61,30.15,-110.24,54.76,2.04
174,Leningradskiy,68,RU,1549260420,80,69.38,178.42,-4.56,15.57
175,Grand Baie,40,MU,1549256400,79,-20.02,57.58,86,11.41
176,Sagua la Grande,20,CU,1549255800,93,22.81,-80.07,60.8,1.12
177,Hobart,20,AU,1549258200,53,-42.88,147.33,71.6,17.22
178,Port Shepstone,0,ZA,1549260421,93,-30.74,30.45,73.3,20.04
179,Flin Flon,24,CA,1549260421,60,54.77,-101.88,-20.94,4.94
180,Acapulco,5,MX,1549259280,88,16.86,-99.88,73.4,3.04
181,Ukiah,90,US,1549256160,85,39.15,-123.21,46.04,2.15
183,Lagoa,0,PT,1549258200,83,37.14,-8.45,44.6,5.82
184,La Ronge,90,CA,1549256400,73,55.1,-105.3,-31.01,2.59
185,Georgetown,75,GY,1549256400,94,6.8,-58.16,75.2,4.7
186,Port Elizabeth,90,US,1549259640,100,39.31,-74.98,33.98,2.93
187,Kyzyl-Suu,8,KG,1549260424,100,42.34,78,25.6,1.59
189,Esperance,20,TT,1549256400,83,10.24,-61.45,73.4,5.06
190,Agadir,0,MA,1549258200,70,30.42,-9.58,46.4,9.17
191,Hereford,68,GB,1549260425,94,52.06,-2.72,43.6,10.98
194,Kalmunai,92,LK,1549260426,98,7.42,81.82,77.57,4.72
195,Muyezerskiy,92,RU,1549260426,75,63.93,31.65,9.94,10.65
196,Pontianak,40,ID,1549258200,66,-0.02,109.34,87.8,5.82
198,Berdigestyakh,64,RU,1549260427,41,62.1,126.7,-27.15,6.17
200,Arraial do Cabo,68,BR,1549260427,97,-22.97,-42.02,75.01,7.96
201,Chitral,88,PK,1549260427,85,35.85,71.79,14.93,0.69
202,Borova,90,UA,1549258260,100,50.18,30.1,37.4,8.95
204,Kieta,88,PG,1549260428,93,-6.22,155.63,83.56,6.4
205,Barrow,0,AR,1549260428,87,-38.31,-60.23,52.15,5.17
206,Fort Myers Beach,90,US,1549259760,96,26.45,-81.95,66.92,4.7
207,Mecca,0,SA,1549260429,55,21.43,39.83,69.65,4.5
208,Haines Junction,68,CA,1549260429,81,60.75,-137.51,-20.98,1.36
209,Petropavlovsk-Kamchatskiy,0,RU,1549258200,49,53.05,158.65,26.6,8.95
210,Matara,36,PE,1549260430,89,-13.74,-72.9,43.15,1.7
211,Katsuura,75,JP,1549256400,44,33.93,134.5,59,17.22
213,Carnarvon,0,ZA,1549260202,81,-30.97,22.13,56.78,10.76
214,Shenjiamen,44,CN,1549260431,87,29.96,122.3,51.43,13.44
215,Nizip,0,TR,1549259400,84,37.01,37.79,33.8,1.12
216,San Quintin,24,PH,1549260431,51,17.54,120.52,85.45,5.5
217,Rawicz,90,PL,1549258200,97,51.61,16.87,32,12.75
218,Pacific Grove,75,US,1549259640,83,36.62,-121.92,51.98,3.36
219,Ballina,75,IE,1549260000,93,54.11,-9.15,41,6.93
220,Huarmey,56,PE,1549260432,93,-10.07,-78.15,66.64,2.59
221,Netivot,0,IL,1549260433,78,31.42,34.59,48.68,9.98
222,Deputatskiy,8,RU,1549260433,0,69.3,139.9,-47.94,3.49
224,Sitka,0,US,1549260433,35,37.17,-99.65,57.77,17.81
225,Sao Filipe,76,CV,1549260434,100,14.9,-24.5,70.15,15.23
226,Kahului,75,US,1549256160,78,20.89,-156.47,73.94,9.17
227,Ishinomaki,20,JP,1549256400,45,38.42,141.3,48.2,35.57
228,La Roda,0,ES,1549256400,80,39.21,-2.16,30.2,6.93
229,Coquimbo,90,CL,1549256400,93,-29.95,-71.34,60.8,4.7
230,Kayes,0,ML,1549260435,57,14.44,-11.44,63.98,6.62
231,Ozernovskiy,76,RU,1549260435,89,51.5,156.52,25.96,10.2
232,Taoudenni,8,ML,1549260436,27,22.68,-3.98,49.27,16.24
234,Tiksi,20,RU,1549260436,59,71.64,128.87,-33.4,3.38
235,Caxito,48,BR,1549260436,100,-22.65,-42.51,71.18,3.6
236,Camocim,68,BR,1549260437,100,-2.9,-40.84,74.83,2.93
237,Nikolskoye,90,RU,1549258200,86,59.7,30.79,33.8,6.71
238,Tessalit,0,ML,1549260437,28,20.2,1.01,47.74,12.21
239,Krasnyy Kut,0,RU,1549260438,89,47.1,40.67,21.46,8.41
240,Baker City,90,US,1549255980,88,44.77,-117.83,37.04,4.7
241,Dalbandin,92,PK,1549260438,98,28.9,64.41,54.35,14.12
242,Neiafu,40,TO,1549256400,62,-18.65,-173.98,84.2,6.93
243,Cervo,12,BR,1549260439,93,-22.19,-46.24,62.5,2.48
244,Poum,92,MK,1549260439,84,41.28,20.71,39.05,2.37
245,Sinnamary,92,GF,1549260439,94,5.38,-52.96,79.78,14
246,Ancud,0,CL,1549256400,72,-41.87,-73.83,62.6,5.82
247,Faanui,92,PF,1549260440,100,-16.48,-151.75,82.97,9.75
248,Cape Canaveral,90,US,1549259760,100,28.41,-80.6,62.96,12.75
249,Puri,75,ID,1549258200,59,-7.54,112.45,89.6,9.17
250,Guarapari,0,BR,1549256400,88,-20.67,-40.5,78.8,3.36
251,Necochea,0,AR,1549260441,100,-38.55,-58.74,48.91,3.04
252,Verkhoyansk,24,RU,1549260441,0,67.55,133.39,-44.07,2.59
254,Henties Bay,92,NA,1549260441,100,-22.12,14.28,61.73,3.04
255,Aasiaat,0,GL,1549260442,98,68.71,-52.87,14.89,14.67
256,Ourem,12,PT,1549260442,84,39.64,-8.59,29.83,2.93
257,Gamba,0,CN,1549260442,71,28.28,88.52,15.43,9.53
258,Biak,44,ID,1549260443,75,-0.91,122.88,86.75,6.73
259,Axim,0,GH,1549260443,100,4.87,-2.24,81.76,9.19
260,Bemidji,90,US,1549258560,84,47.48,-94.89,10.94,8.05
262,General Roca,0,AR,1549256400,43,-39.03,-67.58,69.8,6.93
263,Port Macquarie,0,AU,1549256400,52,-31.43,152.91,89.6,19.46
264,Williams Lake,90,CA,1549256400,76,52.13,-122.14,-9.41,10.29
265,Ecoporanga,0,BR,1549260444,83,-18.37,-40.83,72.8,4.72
266,Bonoua,20,CI,1549258200,94,5.27,-3.6,80.6,8.05
267,Quatre Cocos,40,MU,1549256400,79,-20.21,57.76,86,11.41
268,Tilichiki,80,RU,1549260445,84,60.47,166.1,13.63,3.71
270,Kabare,0,RW,1549260446,72,-1.65,29.38,67.72,2.48
271,Provideniya,90,RU,1549256400,92,64.42,-173.23,28.4,11.18
272,Narsaq,64,GL,1549255800,73,60.91,-46.05,19.4,2.24
273,Banat,0,SD,1549260447,44,14.75,33.41,73.84,10.54
274,Cacu,44,BR,1549260447,92,-18.56,-51.13,68.93,7.52
275,Husavik,92,CA,1549260447,77,50.56,-96.99,-3.93,16.13
276,Tricase,20,IT,1549256100,87,39.93,18.36,53.6,8.05
277,Zhigansk,24,RU,1549260448,59,66.77,123.37,-33.09,7.07
278,Shache,0,CN,1549260448,51,38.42,77.24,36.31,3.71
279,Port-Gentil,64,GA,1549260448,100,-0.72,8.78,78.61,6.4
280,Bloemfontein,0,ZA,1549257660,67,-29.12,26.22,62.6,4.7
281,Hambantota,75,LK,1549257000,83,6.12,81.12,82.4,14.99
283,Padang,75,ID,1549256400,79,-0.92,100.36,84.2,6.93
284,Nushki,80,PK,1549260450,86,29.55,66.02,48.95,5.73
285,Mehamn,0,NO,1549259400,78,71.03,27.85,15.8,6.93
286,Avarua,90,CK,1549256400,88,-21.21,-159.78,78.8,3.36
288,Leshukonskoye,56,RU,1549260451,66,64.9,45.76,-3.66,8.08
291,Cap Malheureux,40,MU,1549256400,79,-19.98,57.61,86,11.41
292,Kavaratti,0,IN,1549260452,100,10.57,72.64,83.11,11.21
293,Plouzane,92,FR,1549258200,93,48.38,-4.62,46.4,24.16
294,Srednekolymsk,32,RU,1549260452,57,67.46,153.71,-19.86,2.59
295,Los Llanos de Aridane,20,ES,1549258200,67,28.66,-17.92,60.8,11.41
296,Iqaluit,90,CA,1549256400,84,63.75,-68.52,-0.41,3.36
297,Hamilton,75,BM,1549256100,72,32.3,-64.78,60.8,5.82
298,Darhan,0,MN,1549260454,39,49.49,105.92,-0.37,8.08
300,San Vicente,0,SV,1549259400,88,13.64,-88.78,71.6,3.36
302,Itarema,92,BR,1549260455,96,-2.92,-39.92,74.6,2.71
303,San Cristobal,75,EC,1549256400,93,-0.39,-78.55,57.2,2.24
304,Port Hawkesbury,90,CA,1549256400,85,45.62,-61.36,10.4,1.36
305,Alofi,8,NU,1549256400,69,-19.06,-169.92,82.4,11.41
306,Patitirion,0,GR,1549259400,82,39.15,23.87,55.4,6.93
307,Misratah,8,LY,1549260456,88,32.38,15.09,52.1,14.23
308,Ust-Omchug,44,RU,1549260457,70,61.13,149.63,-12.48,2.59
309,Puro,8,PH,1549260457,80,13.13,123.76,81.08,12.21
310,Tezu,12,IN,1549260457,38,27.93,96.16,63.8,1.92
311,Naze,32,NG,1549260457,96,5.43,7.07,74.2,4.16
312,Salalah,75,OM,1549255800,64,17.01,54.1,75.2,3.36
313,Phan Thiet,0,VN,1549260458,78,10.93,108.1,82.39,17.58
314,The Valley,20,AI,1549256400,73,18.22,-63.06,77,10.29
317,Ntcheu,100,MW,1549260459,96,-14.82,34.64,72.94,3.6
318,Komsomolskiy,0,RU,1549260459,0,67.55,63.78,-35.16,3.04
319,Fortuna,0,ES,1549258200,45,38.18,-1.13,44.6,11.41
320,Celestun,8,MX,1549260460,90,20.87,-90.4,76.67,15.01
321,Praia da Vitoria,75,PT,1549256400,82,38.73,-27.07,62.6,21.83
323,Hithadhoo,0,MV,1549260461,97,-0.6,73.08,84.68,13
324,Rundu,76,NA,1549260461,88,-17.91,19.77,67.4,4.5
325,Omboue,76,GA,1549260461,100,-1.57,9.26,80,7.4
326,Inhambane,40,MZ,1549256400,78,-23.87,35.38,80.6,4.7
328,Portland,90,US,1549255980,85,45.52,-122.67,39.92,4.7
329,Constantine,75,DZ,1549258200,74,36.36,6.61,37.4,10.29
331,Phalaborwa,20,ZA,1549256400,83,-23.95,31.14,73.4,3.36
333,Tarauaca,44,BR,1549260264,97,-8.16,-70.77,72.31,4.38
334,Lavrentiya,76,RU,1549260463,91,65.58,-170.99,25.33,16.58
336,Plaster Rock,90,CA,1549259640,64,46.91,-67.4,17.96,11.41
337,Pandan,24,PH,1549260464,100,11.72,122.09,78.38,17.69
338,Diu,36,IN,1549260464,29,20.71,70.98,86.53,2.71
339,Nyimba,64,ZM,1549260465,72,-14.56,30.81,76.45,4.16
340,Birjand,90,IR,1549258200,100,32.86,59.22,39.2,6.93
341,Tomohon,40,ID,1549258200,62,1.33,124.84,89.6,10.29
342,Talnakh,0,RU,1549260465,38,69.49,88.39,-25.12,6.06
343,Ailigandi,80,PA,1549260466,80,9.23,-78.02,76.85,6.73
344,Naryan-Mar,0,RU,1549260466,38,67.67,53.09,-24.45,6.62
345,Hualmay,88,PE,1549260466,94,-11.1,-77.61,69.02,4.16
346,Hirara,75,JP,1549256400,94,24.8,125.28,75.2,6.93
347,Cidreira,100,BR,1549260467,86,-30.17,-50.22,68.8,7.63
348,Abonnema,48,NG,1549260467,94,4.71,6.79,71.41,2.93
349,Ludwigslust,24,DE,1549260467,92,53.33,11.5,27.35,8.75
350,Saint-Junien,20,FR,1549258200,100,45.89,0.9,30.2,3.36
351,Springdale,75,US,1549258320,82,36.19,-94.13,62.06,13.87
352,Coruripe,92,BR,1549260468,98,-10.12,-36.18,80.9,9.75
353,Tshikapa,20,CD,1549260469,93,-6.42,20.79,75.91,3.04
354,Stutterheim,0,ZA,1549256400,83,-32.57,27.43,69.8,12.75
355,Oktyabrskoye,0,RU,1549258200,59,56.73,85.44,-31.01,3.6
356,Hohhot,0,CN,1549256400,32,40.81,111.65,24.8,4.47
357,Korem,0,ET,1549260470,38,12.51,39.52,61.78,1.7
358,Nsunga,20,TZ,1549256400,82,-1.13,31.39,66.2,1.92
359,Iwaki,75,JP,1549257060,68,37.05,140.89,42.8,20.8
360,Forbes,64,AU,1549260471,46,-33.38,148.01,91.07,4.38
361,Inta,0,RU,1549260471,81,66.04,60.13,-18.15,1.59
362,Barranca,68,PE,1549260471,100,-10.75,-77.76,71.45,9.64
363,Buraydah,0,SA,1549256400,81,26.33,43.97,50,5.82
364,Myitkyina,0,MM,1549260472,58,25.38,97.4,74.02,2.15
365,Owensboro,1,US,1549259760,82,37.77,-87.11,57.2,8.05
366,Nemuro,75,JP,1549256400,85,43.32,145.57,33.8,4.7
367,Salinopolis,88,BR,1549260473,100,-0.61,-47.36,80.27,11.99
368,Mount Gambier,90,AU,1549256400,60,-37.83,140.78,69.8,20.8
369,Mtsamboro,0,YT,1549258200,79,-12.7,45.07,84.2,4.7
370,Wilmington,1,US,1549259700,79,39.75,-75.55,33.8,2.71
371,Nueve de Julio,20,AR,1549260474,90,-31.67,-68.39,63.35,4.05
372,Aklavik,90,CA,1549256400,64,68.22,-135.01,-2.21,3.36
373,Chaparral,0,CO,1549260474,91,3.72,-75.48,52.96,1.92
374,Lardos,40,GR,1549259400,77,36.09,28.02,59,3.36
375,Lakes Entrance,68,AU,1549260475,79,-37.88,147.99,73.03,7.52
376,Marawi,80,PH,1549260475,93,8,124.29,75.46,3.15
377,Daru,20,SL,1549260476,89,7.99,-10.85,72.53,4.38
378,Lompoc,90,US,1549258500,93,34.64,-120.46,53.06,11.21
379,Taunggyi,0,MM,1549260476,55,20.78,97.03,74.33,3.6
380,Airai,64,TL,1549260476,72,-8.93,125.41,80.14,2.15
381,Port Blair,0,IN,1549260362,97,11.67,92.75,83.65,13.44
382,Kathmandu,20,NP,1549257600,51,27.71,85.32,60.8,2.24
383,El Retorno,68,CO,1549260477,79,2.33,-72.63,76.22,2.48
384,Emerald,40,AU,1549256400,41,-23.53,148.16,91.4,18.34
385,Westport,75,IE,1549260000,93,53.8,-9.52,41,6.93
386,Teknaf,0,BD,1549260478,43,20.86,92.31,80.63,6.06
387,Dakoro,0,NE,1549260478,61,14.51,6.76,56.6,3.49
388,Sayan,76,YE,1549260479,87,15.88,43.46,72.49,3.71
389,Karratha,68,AU,1549260479,24,-20.74,116.85,107,11.77
390,Havelock,90,US,1549259880,100,34.88,-76.9,53.96,13.87
391,Bambanglipuro,64,ID,1549260479,84,-7.95,110.28,82.93,7.63
392,Margate,20,AU,1549258200,53,-43.03,147.26,71.6,17.22
393,Berlevag,0,NO,1549255800,72,70.86,29.09,12.2,17.22
394,Virginia Beach,90,US,1549259940,73,36.85,-75.98,50,3.36
395,Malanje,88,AO,1549260480,96,-9.54,16.35,69.25,3.15
396,Grand Gaube,40,MU,1549256400,79,-20.01,57.66,86,11.41
397,Tashla,75,RU,1549258200,85,53.71,49.75,19.4,8.95
398,Iskateley,0,RU,1549260481,44,67.68,53.15,-27.1,3.94
399,Mendi,0,ET,1549260482,42,9.8,35.1,72.35,3.6
400,Mehendiganj,0,BD,1549260482,52,22.82,90.53,79.55,8.19
401,Wanning,75,AT,1549259400,94,48.64,13.53,32,8.05
402,Santa Ana,0,SV,1549255800,78,13.99,-89.56,71.6,2.24
404,Formosa do Rio Preto,68,BR,1549260483,93,-11.04,-45.19,70.33,2.93
405,Eureka,90,US,1549259160,88,40.8,-124.16,44.6,6.93
406,Lobez,75,PL,1549258200,100,53.64,15.62,28.4,2.24
408,Elizabeth City,1,US,1549259760,80,36.3,-76.22,50.9,11.1
409,Vertou,90,FR,1549258200,80,47.17,-1.47,42.8,12.75
410,Basse,20,DE,1549259400,89,52.55,9.51,32,4.7
411,Caceres,64,CO,1549260485,76,5.53,-74.53,67.18,2.37
412,Lima,90,PE,1549256400,88,-12.06,-77.04,75.2,13.87
413,Grimshaw,5,CA,1549256400,65,56.19,-117.61,-38.21,3.36
414,Godda,0,IN,1549260486,50,24.83,87.21,75.55,9.98
415,Changping,0,CN,1549258200,44,40.22,116.23,37.4,4.47
416,Altamira,8,BR,1549260487,92,-3.2,-52.21,75.55,4.16
417,Bud,75,NO,1549259400,73,62.91,6.91,33.8,10.29
418,Dudinka,8,RU,1549260487,70,69.41,86.18,-9.37,17.69
419,Sao Felix do Xingu,0,BR,1549260488,98,-6.64,-51.99,73.3,2.15
421,Beloha,32,MG,1549260488,62,-25.17,45.06,80.95,11.77
422,Konevo,68,BG,1549260488,92,41.67,25.61,47.38,3.71
423,Morris,1,US,1549259700,96,41.36,-88.42,45.5,8.05
425,Saquena,48,PE,1549260489,100,-4.67,-73.52,73.75,3.6
426,Semirom,0,IR,1549260489,33,31.41,51.57,26.63,3.38
427,Arman,64,RU,1549260490,64,59.7,150.17,-0.87,6.4
428,Uvalde,1,US,1549258500,99,29.21,-99.79,56.12,4.7
429,Ereymentau,92,KZ,1549260490,78,51.62,73.1,-1.32,10.09
430,Kasongo-Lunda,92,CD,1549260491,95,-6.48,16.82,71.95,2.71
431,Lishan,0,CN,1549260491,48,24.07,102.75,63.67,8.52
432,Bahir Dar,0,ET,1549260491,36,11.59,37.39,65.29,4.16
433,Sombrio,92,BR,1549260491,100,-29.11,-49.63,70.15,7.18
434,Quibdo,92,CO,1549260492,100,5.69,-76.66,74.02,1.92
435,Buala,88,SB,1549260492,100,-8.15,159.59,79.24,3.04
436,Igarka,8,RU,1549260492,46,67.47,86.57,-28.23,4.94
437,Riyadh,0,SA,1549256400,57,24.63,46.72,50,3.36
438,Iracoubo,88,GF,1549260493,77,5.48,-53.21,78.02,6.73
439,Geraldton,90,CA,1549259160,70,49.72,-86.95,-2.21,9.17
440,Sorong,44,ID,1549260493,100,-0.86,131.25,81.4,9.53
442,Sayansk,32,RU,1549260494,55,54.11,102.18,-19.72,5.5
443,Uglekamensk,0,RU,1549260494,37,43.22,133.23,11.38,7.63
444,Tukan,92,RU,1549260494,81,53.84,57.45,14.17,2.59
445,Aloleng,0,PH,1549260495,78,16.13,119.78,85.09,5.39
446,Mirnyy,92,RU,1549260495,96,56.57,36.46,33.25,8.63
447,Otradnoye,90,RU,1549258200,86,59.77,30.8,33.8,6.71
448,Atar,48,MR,1549260495,60,20.52,-13.05,46.97,3.94
449,Ostrovnoy,48,RU,1549260496,90,68.05,39.51,-6.9,12.55
450,Mount Isa,90,AU,1549258200,94,-20.73,139.49,75.2,18.34
451,Kualakapuas,40,ID,1549256400,74,-3.01,114.39,84.2,5.82
452,Vardo,1,US,1549259700,95,39.62,-77.74,37.94,2.04
453,Tiarei,75,PF,1549258200,78,-17.53,-149.33,80.6,10.29
454,Palu,92,ID,1549260497,85,-0.9,119.87,73.57,1.7
456,Saint Anthony,90,US,1549259760,81,43.97,-111.68,35.06,5.82
457,Lumberton,90,US,1549259700,94,30.27,-94.2,62.78,3.36
458,Saint-Augustin,0,FR,1549258200,92,44.83,-0.61,28.4,4.38
459,Mlonggo,20,ID,1549256400,59,-6.53,110.7,89.6,11.41
460,Vila Velha,40,BR,1549256400,88,-3.71,-38.6,80.6,3.36
461,Kulhudhuffushi,76,MV,1549260499,100,6.62,73.07,82.03,13.44
462,Noshiro,75,JP,1549257240,69,40.21,140.05,33.8,21.92
464,Rehnan,20,IR,1549258200,55,32.68,51.6,35.6,11.41
465,Rocha,0,UY,1549260500,86,-34.48,-54.34,52.96,2.59
466,Klyuchi,0,RU,1549260500,76,52.25,79.17,-17.2,7.4
467,Porbandar,0,IN,1549258200,26,21.64,69.61,80.6,11.41
468,Kenai,90,US,1549258620,85,60.55,-151.26,24.8,3.36
469,Ambovombe,24,MG,1549260501,77,-25.18,46.09,79.51,9.75
472,Broken Hill,48,AU,1549256400,20,-31.97,141.45,95,13.87
473,Kabale,0,UG,1549260502,88,-1.26,29.99,67.18,0.92
474,Savonlinna,90,FI,1549259400,92,61.87,28.88,23,9.17
475,Marsa Matruh,20,EG,1549256400,93,31.35,27.25,50,3.36
477,Skogn,75,NO,1549259400,85,63.7,11.19,17.6,6.93
479,Okitipupa,12,NG,1549260504,95,6.5,4.78,74.87,2.04
481,Cockburn Town,0,TC,1549260504,99,21.46,-71.14,78.02,14.12
482,Valdez,90,US,1549256160,91,61.13,-146.35,23,0.47
483,Manaure,0,CO,1549260505,96,11.78,-72.45,77.12,19.82
484,Fredericton,90,CA,1549256400,79,45.97,-66.65,19.4,2.24
486,Dakar,92,SN,1549258200,82,14.69,-17.45,62.6,19.46
487,Sinop,0,TR,1549259400,86,42.03,35.15,41,2.24
488,Sankt Valentin,75,AT,1549259400,89,48.17,14.52,32,8.05
489,Jalu,64,LY,1549260506,33,29.03,21.55,54.04,13.11
491,Sterling,1,US,1549259760,73,39,-77.4,34.34,3.36
493,Lagos,20,NG,1549256400,94,6.46,3.39,78.8,2.24
494,Kollam,75,IN,1549254600,66,8.88,76.6,86,4.7
495,Tual,36,ID,1549260508,99,-5.67,132.75,83.6,17.69
496,Thessalon,90,CA,1549259760,97,46.26,-83.55,28.04,3.94
497,Ngunguru,8,NZ,1549260508,94,-35.62,174.5,71.95,16.46
498,Bilibino,0,RU,1549260508,53,68.06,166.44,-19.27,2.93
499,Semey,75,KZ,1549256400,83,50.41,80.25,-5.81,11.18
500,Hofn,88,IS,1549260509,100,64.25,-15.21,31.72,7.96
501,Shimoda,20,JP,1549256400,55,34.7,138.93,64.4,19.46
502,Dragor,68,BG,1549258200,100,42.23,24.3,39.2,2.24
503,Penzance,75,GB,1549259400,100,50.12,-5.53,50,16.11
504,Meulaboh,8,ID,1549260510,100,4.14,96.13,84.1,5.17
505,Peniche,0,PT,1549258200,100,39.36,-9.38,37.4,1.12
507,Nokaneng,8,BW,1549260511,79,-19.66,22.19,75.1,4.94
508,Omigawa,0,JP,1549258200,25,35.85,140.62,64.4,14.99
509,Laguna,0,MX,1549260511,76,27.52,-110.01,60.34,1.7
510,Nanyang,56,CN,1549260512,63,33,112.53,51.38,4.94
511,Villarrica,0,CL,1549256400,100,-39.28,-72.23,53.6,5.06
512,Kargasok,20,RU,1549260512,61,59.06,80.87,-33.36,3.49
513,Mongar,8,BT,1549260513,60,27.28,91.24,62.68,1.7
514,Waraseoni,0,IN,1549260513,46,21.76,80.05,83.42,4.61
515,Rybachiy,0,RU,1549258200,92,48.71,44.74,12.2,2.24
516,Turukhansk,0,RU,1549260513,0,65.8,87.96,-38.85,3.04
517,Samarai,44,PG,1549260514,92,-10.62,150.67,88.1,15.01
518,Chegdomyn,20,RU,1549260514,40,51.13,133.04,-14.37,6.06
519,Meiganga,12,CM,1549260514,58,6.52,14.29,62.63,2.48
520,Pimenteiras,44,BR,1549260515,93,-6.24,-41.42,71,4.38
521,Sambava,36,MG,1549260515,100,-14.27,50.17,81.8,9.53
522,Ust-Nera,0,RU,1549260515,50,64.57,143.24,-32.68,2.15
523,Hasaki,0,JP,1549258200,25,35.73,140.83,64.4,14.99
524,Dhidhdhoo,76,MV,1549260516,100,6.88,73.1,82.03,13.44
525,Santa Rosa,0,AR,1549260518,63,-36.62,-64.29,58.58,8.41
526,Tuban,36,ID,1549260518,72,-6.9,112.07,88.96,4.94
528,Veseloyarsk,36,RU,1549260519,95,51.29,81.11,-5.1,5.95
529,Nome,90,US,1549259700,94,30.04,-94.42,64.4,3.36
530,Sangar,80,RU,1549260519,42,63.92,127.47,-27.6,5.06
534,Eldorado,90,MX,1549255200,73,24.32,-107.36,69.8,2.71
535,Maniitsoq,44,GL,1549260521,72,65.42,-52.9,12.37,7.74
536,Tornio,75,FI,1549259400,86,61.12,27.27,28.4,8.05
537,Thio,90,NC,1549258200,62,-21.61,166.22,84.2,18.34
538,Mapimi,8,MX,1549260521,57,25.82,-103.85,48.01,0.92
539,Belmonte,8,PT,1549260522,74,40.36,-7.35,23.17,2.93
540,Lerwick,80,GB,1549259400,93,60.15,-1.15,41,20.8
541,Ormara,24,PK,1549260522,89,25.21,64.64,68.8,14.12
542,Honningsvag,0,NO,1549259400,61,70.98,25.97,15.8,12.75
543,Alpena,90,US,1549259760,96,45.06,-83.43,38.66,2.71
544,Mezen,48,RU,1549260523,65,65.85,44.24,-3.43,8.08
545,Aksarka,36,RU,1549260523,36,66.56,67.8,-23.46,10.09
546,Tautira,75,PF,1549258200,78,-17.73,-149.15,80.6,10.29
548,Filadelfia,68,PY,1549260524,80,-22.35,-60.04,76.72,10.76
549,Vikhorevka,20,RU,1549258200,66,56.12,101.17,-31.01,4.47
550,Severo-Yeniseyskiy,48,RU,1549260525,53,60.37,93.04,-31.83,3.38
551,Beaverlodge,40,CA,1549256400,65,55.21,-119.43,-36.41,5.82
554,Erzin,0,TR,1549259400,81,36.95,36.2,46.4,2.24
555,Dunedin,0,NZ,1549260431,62,-45.87,170.5,69.97,4.72
556,Senno,90,RU,1549258200,97,57.76,27.95,32,2.24
557,Marfino,90,RU,1549258200,100,56.07,37.56,33.8,6.71
558,Severomorsk,0,RU,1549258200,66,69.07,33.42,-29.21,2.24
559,Mushie,80,CD,1549260527,100,-3.02,16.92,71.68,2.59
560,Fairbanks,90,US,1549258380,92,64.84,-147.72,10.4,4.61
561,Baruun-Urt,0,MN,1549260528,40,46.68,113.28,3.91,4.5
562,Dongsheng,88,CN,1549260528,87,29.72,112.52,48.1,5.61
563,Galeana,56,MX,1549260528,85,24.83,-100.08,43.1,2.93
564,Sao Lourenco do Sul,88,BR,1549260528,67,-31.37,-51.98,67.9,6.4
565,Jardim,32,BR,1549260529,82,-21.48,-56.15,76,6.17
566,Karlshamn,75,SE,1549257600,92,56.17,14.86,24.8,1.12
570,Pacocha,75,EC,1549256400,88,-1.05,-80.87,78.8,4.7
571,Altamont,92,CA,1549259700,76,49.4,-98.5,-5.81,17.22
572,Ayan,32,TR,1549260530,72,40.67,33.6,22.63,1.48
573,Sola,75,NO,1549259400,93,58.89,5.65,37.4,10.29
574,Anadyr,90,RU,1549258200,84,64.73,177.51,6.8,15.66
575,Cassilandia,76,BR,1549260531,94,-19.11,-51.73,68.57,8.97
577,Kungalv,90,SE,1549259400,92,57.87,11.98,30.2,8.05
578,Xapuri,24,BR,1549260532,94,-10.65,-68.5,72.62,2.93
579,Ahipara,32,NZ,1549260532,70,-35.17,173.16,74.87,11.21
580,Kikwit,92,CD,1549260533,100,-5.04,18.82,70.06,7.07
581,Sibolga,64,ID,1549260533,97,1.74,98.78,75.64,2.59
582,Codrington,0,AU,1549256400,38,-28.95,153.24,91.4,11.41
583,Altay,68,CN,1549260533,81,47.83,88.13,3.37,2.93
584,Mukhen,32,RU,1549260534,47,48.19,136.14,-2.62,10.42
585,Keshorai Patan,0,IN,1549260534,81,25.3,75.93,68.26,4.5
586,Las Cruces,90,CL,1549256400,87,-33.5,-71.62,59,1.12
587,Kindu,8,CD,1549260535,90,-2.95,25.92,74.29,1.92
588,Vao,92,EE,1549260535,91,59.1,26.19,29.56,7.4
589,Merauke,20,ID,1549260535,72,-8.49,140.4,89.23,20.49
591,Tiznit,0,MA,1549260536,70,29.7,-9.73,50.8,7.18
592,Marzuq,0,YE,1549260498,33,14.4,46.47,67.18,3.15
593,Ulladulla,0,AU,1549256400,62,-35.36,150.48,84.2,4.7
594,Uddevalla,90,SE,1549259400,92,58.35,11.94,30.2,6.93
